{"items":[{"id":915988,"name":"NormShield","hq_locations":[{"id":702242,"address":"United States","street":null,"street_number":null,"zip":null,"lat":37.09024,"lon":-95.712891,"country":{"id":23,"name":"United States","lat":40.730137,"lon":-73.990129,"trade_register_office":null},"city":null,"continent":{"id":8,"name":"USA and Canada"},"is_headquarters":false,"is_founding_location":false,"trade_register_number":null},{"id":981713,"address":"United States, McLean","street":null,"street_number":null,"zip":null,"lat":38.9338676,"lon":-77.1772604,"country":{"id":23,"name":"United States","lat":40.730137,"lon":-73.990129,"trade_register_office":null},"city":{"id":170,"name":"McLean","lat":38.933868,"lon":-77.17726},"continent":{"id":8,"name":"USA and Canada"},"is_headquarters":false,"is_founding_location":false,"trade_register_number":null},{"id":2012576,"address":"8609 Westwood Center Dr, Vienna, VA 22182, USA","street":"Westwood Center Drive","street_number":"8609","zip":"22182","lat":38.9284405,"lon":-77.2468915,"country":{"id":23,"name":"United States","lat":40.730137,"lon":-73.990129,"trade_register_office":null},"city":{"id":11869,"name":"Vienna","lat":null,"lon":null},"continent":{"id":8,"name":"USA and Canada"},"is_headquarters":false,"is_founding_location":false,"trade_register_number":null},{"id":2363958,"address":"120 St James Ave, Boston, MA 02116, United States","street":"St James Ave","street_number":"120","zip":"02116","lat":42.34972,"lon":-71.07535,"country":{"id":23,"name":"United States","lat":40.730137,"lon":-73.990129,"trade_register_office":null},"city":{"id":43257,"name":"Boston","lat":null,"lon":null},"continent":{"id":8,"name":"USA and Canada"},"is_headquarters":true,"is_founding_location":false,"trade_register_number":""}],"industries":[{"id":1262,"name":"security"}],"path":"normshield"}],"total":1}