{"items":[{"id":1832215,"name":"Orange Cyberdefense","hq_locations":[{"id":1920615,"address":"France, La Défense, Place de l'Ellipse, 54","street":"Place de l'Ellipse","street_number":"54","zip":"92000","lat":48.89326,"lon":2.2308,"country":{"id":43,"name":"France","lat":46.227638,"lon":2.213749,"trade_register_office":"Info Greffe"},"city":{"id":19235,"name":"La Défense","lat":null,"lon":null},"continent":{"id":3,"name":"Europe"},"is_headquarters":true,"is_founding_location":false,"trade_register_number":null},{"id":2265966,"address":"Orteliuslaan 1001, 3528 BE Utrecht, Netherlands","street":"Orteliuslaan","street_number":"1001","zip":"3528 BE","lat":52.0668433,"lon":5.0819388,"country":{"id":32,"name":"Netherlands","lat":52.132633,"lon":5.291266,"trade_register_office":"KVK"},"city":{"id":213,"name":"Utrecht","lat":52.090737,"lon":5.12142},"continent":{"id":3,"name":"Europe"},"is_headquarters":false,"is_founding_location":false,"trade_register_number":null},{"id":2265967,"address":"250 Waterloo Rd, South Bank, London SE1 8UL","street":"Waterloo Road","street_number":"250","zip":"SE1 8UL","lat":51.499628,"lon":-0.1072784,"country":{"id":9,"name":"United Kingdom","lat":51.465986,"lon":-1.281401,"trade_register_office":"Companies House"},"city":{"id":10,"name":"London","lat":51.5073509,"lon":-0.1277583},"continent":{"id":3,"name":"Europe"},"is_headquarters":false,"is_founding_location":false,"trade_register_number":null},{"id":2265968,"address":"2 W Regent St, Glasgow G2 1RW","street":"West Regent Street","street_number":"2","zip":"G2 1RW","lat":55.8630695,"lon":-4.2550153,"country":{"id":9,"name":"United Kingdom","lat":51.465986,"lon":-1.281401,"trade_register_office":"Companies House"},"city":{"id":477,"name":"Glasgow","lat":55.864237,"lon":-4.251806},"continent":{"id":3,"name":"Europe"},"is_headquarters":false,"is_founding_location":false,"trade_register_number":null},{"id":2265969,"address":"3 Hardman Square, Manchester M3","street":null,"street_number":null,"zip":null,"lat":53.4795473,"lon":-2.2530029,"country":{"id":9,"name":"United Kingdom","lat":51.465986,"lon":-1.281401,"trade_register_office":"Companies House"},"city":{"id":189,"name":"Manchester","lat":53.480759,"lon":-2.242631},"continent":{"id":3,"name":"Europe"},"is_headquarters":false,"is_founding_location":false,"trade_register_number":null},{"id":2265970,"address":"two snow hill, 2 Snow Hill Queensway, Birmingham B4 6GA","street":"Snow Hill Queensway","street_number":"2","zip":"B4 6GA","lat":52.4840723,"lon":-1.8988412,"country":{"id":9,"name":"United Kingdom","lat":51.465986,"lon":-1.281401,"trade_register_office":"Companies House"},"city":{"id":154,"name":"Birmingham","lat":52.486243,"lon":-1.890401},"continent":{"id":3,"name":"Europe"},"is_headquarters":false,"is_founding_location":false,"trade_register_number":null},{"id":2265971,"address":"350 Brook Dr, Reading RG2 6UH Brook Dr, Reading RG2 6UH","street":"Brook Drive","street_number":"350 Brook Dr, Reading RG2 6UH","zip":"RG2 6UH","lat":51.4228306,"lon":-0.9904643,"country":{"id":9,"name":"United Kingdom","lat":51.465986,"lon":-1.281401,"trade_register_office":"Companies House"},"city":{"id":295,"name":"Reading","lat":51.454265,"lon":-0.97813},"continent":{"id":3,"name":"Europe"},"is_headquarters":false,"is_founding_location":false,"trade_register_number":null},{"id":2265972,"address":"Hermitage Ln, Maidstone ME16 9NT","street":"Hermitage Lane","street_number":null,"zip":"ME16 9NT","lat":51.2789456,"lon":0.4793205,"country":{"id":9,"name":"United Kingdom","lat":51.465986,"lon":-1.281401,"trade_register_office":"Companies House"},"city":{"id":4697,"name":"Maidstone","lat":51.270363,"lon":0.522699},"continent":{"id":3,"name":"Europe"},"is_headquarters":false,"is_founding_location":false,"trade_register_number":null},{"id":2265973,"address":"Stenbärsgatan 6, 212 31 Malmö, Sweden","street":"Stenbärsgatan","street_number":"6","zip":"212 31","lat":55.5873611,"lon":13.057485,"country":{"id":20,"name":"Sweden","lat":56.877226,"lon":16.665421,"trade_register_office":null},"city":{"id":338,"name":"Malmö","lat":55.604981,"lon":13.003822},"continent":{"id":3,"name":"Europe"},"is_headquarters":false,"is_founding_location":false,"trade_register_number":null},{"id":2265974,"address":"Warfvinges väg 39, 112 51 Stockholm, Sweden","street":"Warfvinges väg","street_number":"39","zip":"112 51","lat":59.339015,"lon":18.012262,"country":{"id":20,"name":"Sweden","lat":56.877226,"lon":16.665421,"trade_register_office":null},"city":{"id":21,"name":"Stockholm","lat":59.3293235,"lon":18.0685808},"continent":{"id":3,"name":"Europe"},"is_headquarters":false,"is_founding_location":false,"trade_register_number":null},{"id":2265975,"address":"Forskargatan 3, 781 70 Borlänge, Sweden","street":"Forskargatan","street_number":"3","zip":"781 70","lat":60.4835367,"lon":15.4106542,"country":{"id":20,"name":"Sweden","lat":56.877226,"lon":16.665421,"trade_register_office":null},"city":{"id":14506,"name":"Borlänge","lat":null,"lon":null},"continent":{"id":3,"name":"Europe"},"is_headquarters":false,"is_founding_location":false,"trade_register_number":null},{"id":2265977,"address":"Storgatan 73, 852 30 Sundsvall, Sweden","street":"Storgatan","street_number":"73","zip":"852 30","lat":62.3929611,"lon":17.2836571,"country":{"id":20,"name":"Sweden","lat":56.877226,"lon":16.665421,"trade_register_office":null},"city":{"id":491,"name":"Sundsvall","lat":62.390811,"lon":17.306927},"continent":{"id":3,"name":"Europe"},"is_headquarters":false,"is_founding_location":false,"trade_register_number":null},{"id":2265978,"address":"E A Rosengrens gata 17, 421 31 Västra Frölunda, Sweden","street":"E A Rosengrens gata","street_number":"17","zip":"421 31","lat":57.654922,"lon":11.9358085,"country":{"id":20,"name":"Sweden","lat":56.877226,"lon":16.665421,"trade_register_office":null},"city":{"id":14735,"name":"Västra Frölunda","lat":null,"lon":null},"continent":{"id":3,"name":"Europe"},"is_headquarters":false,"is_founding_location":false,"trade_register_number":null},{"id":2265979,"address":"South Africa","street":null,"street_number":null,"zip":null,"lat":-30.559482,"lon":22.937506,"country":{"id":191,"name":"South Africa","lat":-26.270759,"lon":28.112268,"trade_register_office":null},"city":null,"continent":{"id":4,"name":"Africa"},"is_headquarters":false,"is_founding_location":false,"trade_register_number":null},{"id":2265980,"address":"Lysaker Torg 25, 1366 Lysaker, Norway","street":"Lysaker Torg","street_number":"25","zip":"1366","lat":59.9121258,"lon":10.6356746,"country":{"id":201,"name":"Norway","lat":60.472024,"lon":8.468946,"trade_register_office":null},"city":{"id":14489,"name":"Lysaker","lat":null,"lon":null},"continent":{"id":3,"name":"Europe"},"is_headquarters":false,"is_founding_location":false,"trade_register_number":null},{"id":2265981,"address":"Casablanca, Morocco","street":null,"street_number":null,"zip":null,"lat":33.5292513,"lon":-7.6384024,"country":{"id":234,"name":"Morocco","lat":31.791702,"lon":-7.09262,"trade_register_office":null},"city":{"id":235,"name":"Casablanca","lat":33.5731104,"lon":-7.5898434},"continent":{"id":4,"name":"Africa"},"is_headquarters":false,"is_founding_location":false,"trade_register_number":null},{"id":2265982,"address":"24, Paul-Gerhardt-Allee, 81245 Munich, Germany","street":"Paul-Gerhardt-Allee","street_number":"24","zip":"81245","lat":48.1515125,"lon":11.4758135,"country":{"id":13,"name":"Germany","lat":52.520007,"lon":13.404954,"trade_register_office":"Handelsregister"},"city":{"id":22,"name":"Munich","lat":48.1351253,"lon":11.5819806},"continent":{"id":3,"name":"Europe"},"is_headquarters":false,"is_founding_location":false,"trade_register_number":null},{"id":2265983,"address":"Gutleutstraße 163, 60327 Frankfurt am Main, Germany","street":"Gutleutstraße","street_number":"163","zip":"60327","lat":50.1012339,"lon":8.6596531,"country":{"id":13,"name":"Germany","lat":52.520007,"lon":13.404954,"trade_register_office":"Handelsregister"},"city":{"id":34665,"name":"Frankfurt am Main","lat":null,"lon":null},"continent":{"id":3,"name":"Europe"},"is_headquarters":false,"is_founding_location":false,"trade_register_number":null},{"id":2265984,"address":"Curt-Frenzel-Straße 10A, 86167 Augsburg, Germany","street":"Curt-Frenzel-Straße","street_number":"10A","zip":"86167","lat":48.395252,"lon":10.9240618,"country":{"id":13,"name":"Germany","lat":52.520007,"lon":13.404954,"trade_register_office":"Handelsregister"},"city":{"id":1149,"name":"Augsburg","lat":48.370545,"lon":10.89779},"continent":{"id":3,"name":"Europe"},"is_headquarters":false,"is_founding_location":false,"trade_register_number":null},{"id":2265985,"address":"Avenue du Bourget 3, 1140 Evere, Belgium","street":"Avenue du Bourget","street_number":"3","zip":"1140","lat":50.8759987,"lon":4.4145838,"country":{"id":60,"name":"Belgium","lat":51.029515,"lon":3.735458,"trade_register_office":null},"city":{"id":2532,"name":"Evere","lat":null,"lon":null},"continent":{"id":3,"name":"Europe"},"is_headquarters":false,"is_founding_location":false,"trade_register_number":null},{"id":2265986,"address":"Wingepark 5, 3110 Rotselaar, Belgium","street":"Wingepark","street_number":"5","zip":"3110","lat":50.9399228,"lon":4.7431195,"country":{"id":60,"name":"Belgium","lat":51.029515,"lon":3.735458,"trade_register_office":null},"city":{"id":13335,"name":"Rotselaar","lat":null,"lon":null},"continent":{"id":3,"name":"Europe"},"is_headquarters":false,"is_founding_location":false,"trade_register_number":null},{"id":2265987,"address":"Rue de l'Industrie 20, 1400 Nivelles, Belgium","street":"Rue de l'Industrie","street_number":"20","zip":"1400","lat":50.5864571,"lon":4.355077,"country":{"id":60,"name":"Belgium","lat":51.029515,"lon":3.735458,"trade_register_office":null},"city":{"id":816,"name":"Nivelles","lat":50.59787,"lon":4.32851},"continent":{"id":3,"name":"Europe"},"is_headquarters":false,"is_founding_location":false,"trade_register_number":null},{"id":2265988,"address":"Uilenbaan 80, 2160 Wommelgem, Belgium","street":"Uilenbaan","street_number":"80","zip":"2160","lat":51.2128972,"lon":4.5122732,"country":{"id":60,"name":"Belgium","lat":51.029515,"lon":3.735458,"trade_register_office":null},"city":{"id":2537,"name":"Wommelgem","lat":null,"lon":null},"continent":{"id":3,"name":"Europe"},"is_headquarters":false,"is_founding_location":false,"trade_register_number":null},{"id":2265989,"address":"Shanghai, China","street":null,"street_number":null,"zip":null,"lat":31.2274374,"lon":121.4805642,"country":{"id":31,"name":"China","lat":35.86166,"lon":104.195397,"trade_register_office":null},"city":{"id":708,"name":"Shanghai","lat":31.230416,"lon":121.473701},"continent":{"id":1,"name":"Asia"},"is_headquarters":false,"is_founding_location":false,"trade_register_number":null}],"industries":[{"id":1262,"name":"security"}],"path":"orange_cyberdefense"}],"total":1}