{"items":[{"id":1825099,"name":"Resistant AI","hq_locations":[{"id":1913141,"address":"150 00 Jihomoravsk√Ω kraj, Czech Republic","street":null,"street_number":null,"zip":"150 00","lat":50.071569,"lon":14.3707319,"country":{"id":53,"name":"Czech Republic","lat":49.817492,"lon":15.472962,"trade_register_office":null},"city":{"id":29698,"name":"Prague","lat":null,"lon":null},"continent":{"id":3,"name":"Europe"},"is_headquarters":true,"is_founding_location":false,"trade_register_number":null},{"id":1913679,"address":"Brussels, Belgium","street":null,"street_number":null,"zip":null,"lat":50.8503396,"lon":4.3517103,"country":{"id":60,"name":"Belgium","lat":51.029515,"lon":3.735458,"trade_register_office":null},"city":{"id":327,"name":"Brussels","lat":50.85034,"lon":4.35171},"continent":{"id":3,"name":"Europe"},"is_headquarters":false,"is_founding_location":false,"trade_register_number":null}],"industries":[{"id":1262,"name":"security"},{"id":100147,"name":"enterprise software"}],"path":"resistant_ai"}],"total":1}