{"items":[{"id":919710,"name":"Sysnet Global Solutions","hq_locations":[{"id":1868585,"address":"1001, Summit Boulevard Northeast, 30319 Atlanta, Georgia","street":"Summit Boulevard Northeast","street_number":"1001","zip":"30319","lat":33.914489,"lon":-84.3410078,"country":{"id":23,"name":"United States","lat":40.730137,"lon":-73.990129,"trade_register_office":null},"city":{"id":44396,"name":"Atlanta","lat":null,"lon":null},"continent":{"id":8,"name":"USA and Canada"},"is_headquarters":false,"is_founding_location":false,"trade_register_number":null},{"id":1868586,"address":"Dublin, Ireland","street":null,"street_number":null,"zip":null,"lat":53.3218189,"lon":-6.3164447,"country":{"id":70,"name":"Ireland","lat":53.41291,"lon":-8.24389,"trade_register_office":null},"city":{"id":71,"name":"Dublin","lat":53.3498053,"lon":-6.2603097},"continent":{"id":3,"name":"Europe"},"is_headquarters":true,"is_founding_location":false,"trade_register_number":null},{"id":1868587,"address":"68 Lombard St, London EC3V 9LJ","street":"Lombard Street","street_number":"68","zip":"EC3V 9LJ","lat":51.5126942,"lon":-0.0872553,"country":{"id":9,"name":"United Kingdom","lat":51.465986,"lon":-1.281401,"trade_register_office":"Companies House"},"city":{"id":10,"name":"London","lat":51.5073509,"lon":-0.1277583},"continent":{"id":3,"name":"Europe"},"is_headquarters":false,"is_founding_location":false,"trade_register_number":null},{"id":1868589,"address":"61-754 Poznań, Poland","street":null,"street_number":null,"zip":"61-754","lat":52.4110341,"lon":16.9401429,"country":{"id":47,"name":"Poland","lat":51.919438,"lon":19.145136,"trade_register_office":null},"city":{"id":96,"name":"Poznań","lat":52.406374,"lon":16.925168},"continent":{"id":3,"name":"Europe"},"is_headquarters":false,"is_founding_location":false,"trade_register_number":null},{"id":1868590,"address":"Century Way, Century City, Cape Town, 7441, South Africa","street":"Century Way","street_number":null,"zip":"7441","lat":-33.8899017,"lon":18.5085264,"country":{"id":191,"name":"South Africa","lat":-26.270759,"lon":28.112268,"trade_register_office":null},"city":{"id":278,"name":"Cape Town","lat":-33.924869,"lon":18.424055},"continent":{"id":4,"name":"Africa"},"is_headquarters":false,"is_founding_location":false,"trade_register_number":null},{"id":1868593,"address":"Hyderabad, Telangana, India","street":null,"street_number":null,"zip":null,"lat":17.385044,"lon":78.486671,"country":{"id":97,"name":"India","lat":20.593684,"lon":78.96288,"trade_register_office":null},"city":{"id":2410,"name":"Hyderabad","lat":17.385044,"lon":78.486671},"continent":{"id":1,"name":"Asia"},"is_headquarters":false,"is_founding_location":false,"trade_register_number":null}],"industries":[{"id":1261,"name":"legal"},{"id":1262,"name":"security"}],"path":"sysnet_global_solutions_1"}],"total":1}